City_ID,City,Lat,Lng,Max Temp,Humidity,Cloudiness,Wind Speed,Country,Date
0,hanko,59.8333,22.95,4.99,91,100,16.09,FI,1700699620
1,hamilton,39.1834,-84.5333,6.54,79,0,1.79,US,1700699620
2,anadyr,64.75,177.4833,1.28,100,75,4.0,RU,1700699404
3,namibe,-15.1961,12.1522,22.05,76,64,3.92,AO,1700699620
4,auki,-8.7676,160.7034,30.05,65,100,1.9,SB,1700699621
5,edinburgh of the seven seas,-37.0676,-12.3116,14.19,87,17,11.49,SH,1700699621
6,invercargill,-46.4,168.35,10.57,83,47,11.18,NZ,1700699621
7,northam,51.0333,-4.2167,14.25,92,71,5.66,GB,1700699621
8,margaret river,-33.95,115.0667,27.05,30,0,4.89,AU,1700699621
9,bykhaw,53.5193,30.2469,-7.51,80,100,3.38,BY,1700699621
10,sinabang,2.4803,96.3801,26.01,81,100,0.35,ID,1700699622
11,port elizabeth,-33.918,25.5701,17.16,78,0,2.06,ZA,1700699622
12,stanley,54.868,-1.6985,11.96,83,75,12.35,GB,1700699425
13,lerwick,60.1545,-1.1494,8.0,76,100,16.26,GB,1700699622
14,minot air force base,48.4209,-101.3391,-1.95,61,20,4.12,US,1700699622
15,punta arenas,-53.15,-70.9167,7.06,61,0,9.77,CL,1700699622
16,fallbrook,33.3764,-117.2512,25.77,25,0,3.6,US,1700699423
17,jayapura,-2.5333,140.7,29.66,74,97,1.58,ID,1700699594
18,lihue,21.9789,-159.3672,26.77,78,75,4.63,US,1700699622
19,vorkuta,67.5,64.0,-9.36,79,100,6.07,RU,1700699557
20,waitangi,-43.9535,-176.5597,12.32,75,100,6.78,NZ,1700699623
21,kapa'a,22.0752,-159.319,27.18,83,75,4.63,US,1700699623
22,yellowknife,62.456,-114.3525,-18.1,95,75,3.6,CA,1700699623
23,papatowai,-46.5619,169.4708,12.26,84,100,7.03,NZ,1700699623
24,codrington,-38.2667,141.9667,19.78,56,15,7.15,AU,1700699623
25,kuta,-8.7233,115.1723,26.97,100,75,2.24,ID,1700699623
26,isafjordur,66.0755,-23.124,-1.61,87,100,3.29,IS,1700699623
27,san patricio,28.017,-97.5169,14.38,38,100,2.32,US,1700699623
28,bilibino,68.0546,166.4372,-18.54,95,100,3.32,RU,1700699420
29,la passe,45.5549,-0.8967,7.77,77,96,4.3,FR,1700699624
30,presidente prudente,-22.1256,-51.3889,25.75,83,40,2.06,BR,1700699624
31,sitangkai,4.6628,119.3928,28.82,78,17,4.87,PH,1700699624
32,saint-pierre,-21.3393,55.4781,23.09,78,68,3.09,RE,1700699346
33,thompson,55.7435,-97.8558,-17.91,65,0,5.14,CA,1700699472
34,blackmans bay,-43.0167,147.3167,19.74,59,22,1.34,AU,1700699625
35,moulins,46.5,3.3333,-0.29,90,42,1.28,FR,1700699625
36,tiksi,71.6872,128.8694,-31.84,100,63,1.92,RU,1700699625
37,umm kaddadah,13.6017,26.6876,23.01,21,25,4.65,SD,1700699625
38,longyearbyen,78.2186,15.6401,0.91,69,75,7.72,SJ,1700699625
39,port-aux-francais,-49.35,70.2167,4.92,91,100,14.55,TF,1700699625
40,quellon,-43.1167,-73.6167,8.72,91,75,0.62,CL,1700699625
41,butajira,8.1167,38.3667,14.07,79,16,4.97,ET,1700699626
42,iqaluit,63.7506,-68.5145,-2.15,74,75,7.72,CA,1700699626
43,katsuren-haebaru,26.3369,127.8719,24.01,73,0,3.09,JP,1700699626
44,keflavik,64.0049,-22.5624,1.95,55,75,13.38,IS,1700699626
45,bredasdorp,-34.5322,20.0403,16.99,79,0,1.53,ZA,1700699626
46,vieste,41.8825,16.175,15.23,88,100,8.31,IT,1700699626
47,jamestown,42.097,-79.2353,4.77,96,100,6.17,US,1700699626
48,riverton,40.5219,-111.9391,7.28,68,0,3.13,US,1700699627
49,antonio enes,-16.2325,39.9086,24.43,93,3,1.43,MZ,1700699627
50,arraial do cabo,-22.9661,-42.0278,24.17,80,100,12.0,BR,1700699627
51,oxapampa,-10.5775,-75.4017,16.49,98,99,0.63,PE,1700699627
52,adamstown,-25.066,-130.1015,21.38,64,0,3.9,PN,1700699627
53,klaksvik,62.2266,-6.589,5.51,69,72,19.28,FO,1700699391
54,avarua,-21.2078,-159.775,27.03,65,40,6.69,CK,1700699627
55,zanjan,36.6736,48.4787,3.94,35,64,2.49,IR,1700699342
56,puerto natales,-51.7236,-72.4875,5.75,80,100,5.47,CL,1700699627
57,aasiaat,68.7098,-52.8699,-7.89,76,100,6.47,GL,1700699628
58,parabel',58.6978,81.4825,-10.05,81,100,4.02,RU,1700699629
59,pandan,14.0453,124.1694,27.99,86,72,3.78,PH,1700699629
60,ilulissat,69.2167,-51.1,-3.99,58,75,11.83,GL,1700699629
61,vorgashor,67.5833,63.95,-9.31,78,100,7.18,RU,1700699629
62,enriquillo,17.9,-71.2333,25.82,83,8,3.95,DO,1700699629
63,trairi,-3.2778,-39.2689,26.84,78,0,5.52,BR,1700699629
64,grytviken,-54.2811,-36.5092,1.81,96,100,1.7,GS,1700699629
65,bethel,41.3712,-73.414,7.64,85,100,1.34,US,1700699629
66,palpala,-24.2565,-65.2116,18.57,83,100,3.09,AR,1700699630
67,kodiak,57.79,-152.4072,5.73,100,100,5.14,US,1700699630
68,marsabit,2.3284,37.9899,18.29,86,88,5.38,KE,1700699630
69,howrah,22.5892,88.3103,18.0,94,0,0.0,IN,1700699630
70,kone,-21.0595,164.8658,29.27,46,12,4.01,NC,1700699630
71,hasaki,35.7333,140.8333,16.27,79,100,7.8,JP,1700699630
72,kasongo,-4.45,26.6667,19.43,98,100,0.68,CD,1700699630
73,popondetta,-8.7537,148.2534,34.02,46,63,2.38,PG,1700699630
74,lazaro cardenas,17.9583,-102.2,25.79,80,100,0.83,MX,1700699631
75,college,64.8569,-147.8028,-11.42,78,40,0.0,US,1700699631
76,ravar,31.2656,56.8055,8.56,38,0,0.42,IR,1700699631
77,nova sintra,14.8667,-24.7167,24.47,65,98,6.12,CV,1700699631
78,nema,57.5067,50.5011,-10.65,94,100,5.89,RU,1700699631
79,bardai,11.65,7.2333,19.9,35,8,2.08,NG,1700699631
80,galesong,-5.3166,119.3661,31.01,62,54,1.88,ID,1700699631
81,talnakh,69.4865,88.3972,-25.48,99,100,3.61,RU,1700699632
82,wynne,35.2245,-90.7868,7.37,61,1,1.25,US,1700699632
83,ushuaia,-54.8,-68.3,3.81,70,75,11.32,AR,1700699560
84,dudinka,69.4058,86.1778,-28.07,100,93,3.83,RU,1700699632
85,siwa oasis,29.2041,25.5195,15.76,47,0,1.84,EG,1700699632
86,enewetak,11.3474,162.3373,27.95,71,10,8.73,MH,1700699632
87,dolores,-36.3132,-57.6792,12.76,63,33,3.67,AR,1700699632
88,kalabo,-14.97,22.6814,19.9,80,48,1.2,ZM,1700699632
89,katsuura,35.1333,140.3,19.92,80,100,7.83,JP,1700699632
90,carnarvon,-24.8667,113.6333,24.86,68,81,1.9,AU,1700699633
91,kodinsk,58.6881,99.1844,-19.01,100,92,0.73,RU,1700699633
92,susuman,62.7833,148.1667,-20.94,95,100,2.58,RU,1700699633
93,bahia blanca,-38.7196,-62.2724,15.46,38,12,1.79,AR,1700699633
94,west island,-12.1568,96.8225,26.99,74,100,5.66,CC,1700699633
95,banda aceh,5.5577,95.3222,26.41,82,94,1.22,ID,1700699535
96,georgetown,5.4112,100.3354,27.75,94,20,3.09,MY,1700699356
97,manokwari,-0.8667,134.0833,28.74,73,61,2.8,ID,1700699633
98,puerto baquerizo moreno,-0.9,-89.6,24.49,80,61,4.86,EC,1700699633
99,vila velha,-20.3297,-40.2925,24.97,82,40,5.36,BR,1700699413
100,chake chake,-5.2459,39.7666,24.99,90,100,2.39,TZ,1700699634
101,gizo,-8.103,156.8419,28.5,77,100,4.84,SB,1700699634
102,psebay,44.1234,40.8107,6.67,87,100,2.07,RU,1700699634
103,bermejo,-32.8833,-68.8,24.95,29,0,1.03,AR,1700699634
104,gaspe,48.8334,-64.4819,2.95,80,100,2.06,CA,1700699634
105,dapchi,12.4904,11.4944,21.42,24,100,2.59,NG,1700699634
106,ribeira do pombal,-10.8344,-38.5358,23.04,81,0,3.95,BR,1700699634
107,purpe,64.4803,76.6897,-11.9,82,100,9.18,RU,1700699635
108,san antonio de pale,-1.4014,5.6325,26.02,82,100,5.03,GQ,1700699635
109,czarne,53.6842,16.9383,-0.24,57,100,7.59,PL,1700699491
110,petropavlovsk-kamchatsky,53.0452,158.6483,-1.67,73,20,10.28,RU,1700699480
111,whitehorse,60.7161,-135.0538,-2.57,86,40,7.72,CA,1700699635
112,neelankarai,12.9455,80.2575,25.03,94,75,1.03,IN,1700699635
113,olonkinbyen,70.9221,-8.7187,-8.51,91,100,19.06,SJ,1700699635
114,vilyuchinsk,52.9306,158.4028,-0.85,72,32,8.97,RU,1700699635
115,ati,13.2154,18.3353,24.83,21,9,3.78,TD,1700699635
116,ancud,-41.8697,-73.8203,8.78,87,1,3.08,CL,1700699635
117,port mathurin,-19.6833,63.4167,25.02,74,70,8.58,MU,1700699636
118,zahedan,29.4963,60.8629,8.95,29,0,3.09,IR,1700699398
119,chilapa de alvarez,17.6,-99.1667,16.48,92,99,1.92,MX,1700699636
120,ofunato,39.0717,141.7167,15.77,55,100,2.47,JP,1700699636
121,nemuro,43.3236,145.575,11.38,82,100,8.96,JP,1700699636
122,mount isa,-20.7333,139.5,28.87,51,14,4.12,AU,1700699636
123,cabo san lucas,22.8909,-109.9124,26.61,50,20,3.6,MX,1700699636
124,las heras,-46.5419,-68.9359,11.85,41,100,7.7,AR,1700699636
125,manaure,11.7751,-72.4445,27.81,79,100,4.43,CO,1700699637
126,phan thiet,10.9333,108.1,26.81,77,90,1.74,VN,1700699637
127,middletown,39.5151,-84.3983,7.31,83,100,0.45,US,1700699637
128,lakatoro,-16.0999,167.4164,28.41,61,71,5.12,VU,1700699637
129,hell-ville,-13.4,48.2667,27.79,73,100,1.2,MG,1700699637
130,iskateley,67.6803,53.1512,-10.55,95,100,4.92,RU,1700699637
131,kiffa,16.6166,-11.4045,24.51,15,100,4.01,MR,1700699637
132,bijie,27.3125,105.2942,10.89,81,5,1.27,CN,1700699637
133,morant bay,17.8815,-76.4093,27.79,84,34,2.47,JM,1700699638
134,mcalester,34.9334,-95.7697,6.42,65,0,1.54,US,1700699638
135,sergokala,42.4547,47.6612,0.61,53,21,2.33,RU,1700699638
136,fort bragg,35.139,-79.006,14.82,82,100,3.6,US,1700699638
137,les cayes,18.2,-73.75,25.68,83,82,0.57,HT,1700699638
138,smithers,54.7804,-127.1743,1.18,93,75,2.06,CA,1700699638
139,tongchuanshi,35.0806,109.0897,1.62,34,0,3.02,CN,1700699639
140,greenville,35.6127,-77.3663,14.01,97,100,1.54,US,1700699639
141,wailua homesteads,22.0669,-159.378,26.44,83,75,4.63,US,1700699639
142,matoury,4.8483,-52.3317,27.98,83,20,2.06,GF,1700699639
143,altai,46.3722,96.2583,-15.1,49,3,0.73,MN,1700699639
144,lebu,-37.6167,-73.65,11.52,77,0,7.74,CL,1700699639
145,san lawrenz,36.0553,14.204,15.48,86,74,16.56,MT,1700699640
146,hanzhong,33.0728,107.0303,9.64,46,0,1.44,CN,1700699640
147,brookings,44.3114,-96.7984,9.0,49,0,4.12,US,1700699640
148,isla vista,34.4133,-119.861,24.2,35,0,2.06,US,1700699640
149,tura,25.5198,90.2201,16.79,89,0,1.55,IN,1700699640
150,riosucio,5.4216,-75.7032,17.51,97,100,0.55,CO,1700699640
151,portland,45.5234,-122.6762,11.02,83,75,4.63,US,1700699411
152,fale old settlement,-9.3852,-171.2468,28.58,76,100,4.51,TK,1700699640
153,kuusamo,65.9667,29.1833,-9.98,92,100,8.23,FI,1700699419
154,newman,37.3138,-121.0208,19.19,53,100,2.28,US,1700699641
155,wysokie mazowieckie,52.9166,22.5171,-4.99,72,100,6.22,PL,1700699473
156,cruz das almas,-12.67,-39.1019,21.79,90,20,1.83,BR,1700699641
157,klyuchi,52.2667,79.1667,-0.34,54,100,5.67,RU,1700699641
158,sola,-13.8833,167.55,29.37,70,40,4.12,VU,1700699641
159,remire-montjoly,4.9167,-52.2667,28.02,83,20,2.06,GF,1700699641
160,sitka,57.0531,-135.33,8.94,61,100,8.75,US,1700699641
161,saipan,15.1355,145.701,29.39,74,0,6.69,MP,1700699641
162,iquique,-20.2208,-70.1431,20.02,76,50,1.08,CL,1700699087
163,minsk,53.9,27.5667,-7.14,80,100,5.56,BY,1700699642
164,saudarkrokur,65.7461,-19.6394,-0.99,86,100,7.62,IS,1700699642
165,vodnyy,63.5046,53.4095,-9.21,94,100,3.01,RU,1700699642
166,ust-nera,64.5667,143.2,-25.77,92,100,1.95,RU,1700699642
167,tandil,-37.3217,-59.1332,14.44,37,47,4.08,AR,1700699472
168,tara,56.8944,74.371,-4.73,81,100,5.58,RU,1700699642
169,petrovsk,52.3064,45.3917,-11.7,94,17,3.95,RU,1700699642
170,tubarjal,30.4999,38.216,15.89,49,100,7.79,SA,1700699642
171,ibanda,-2.7974,32.4746,17.68,96,100,1.36,TZ,1700699643
172,santa cecilia,-26.9608,-50.4269,17.74,99,100,0.94,BR,1700699643
173,cadale,2.7603,46.3222,26.5,84,100,7.91,SO,1700699643
174,kyabe,9.4515,18.9449,26.13,46,43,1.41,TD,1700699643
175,port alfred,-33.5906,26.891,19.06,86,0,3.03,ZA,1700699643
176,su-ngai kolok,6.0298,101.9659,23.91,93,97,1.18,TH,1700699643
177,orcopampa,-15.2661,-72.3417,8.36,52,13,1.71,PE,1700699644
178,port isabel,26.0734,-97.2086,12.25,89,0,2.57,US,1700699644
179,san jose del guaviare,2.5729,-72.6459,24.78,86,81,1.47,CO,1700699644
180,uturoa,-16.7333,-151.4333,26.71,83,17,7.13,PF,1700699644
181,yuzhno-kurilsk,44.0306,145.8556,9.65,65,100,6.94,RU,1700699644
182,alliance,40.9153,-81.1059,4.06,95,100,3.75,US,1700699644
183,menaka,15.9182,2.4022,23.7,15,100,1.62,ML,1700699644
184,qaqortoq,60.7167,-46.0333,-11.97,64,0,2.84,GL,1700699644
185,salahonda,2.1019,-78.7217,26.56,80,100,2.4,CO,1700699645
186,ribeira grande,38.5167,-28.7,18.61,87,16,4.78,PT,1700699645
187,xai-xai,-25.0519,33.6442,24.69,68,4,3.4,MZ,1700699645
188,afaahiti,-17.75,-149.2833,27.93,87,83,9.34,PF,1700699645
189,san luis de la loma,17.2706,-100.8939,25.59,82,100,0.7,MX,1700699645
190,santa cruz,-17.8,-63.1667,25.7,78,80,3.6,BO,1700699479
191,stassfurt,51.8396,11.58,3.3,67,99,6.03,DE,1700699645
192,parnarama,-5.6817,-43.0933,23.19,91,68,0.29,BR,1700699645
193,boiling spring lakes,34.0304,-78.0672,16.09,88,40,3.6,US,1700699646
194,mejit,10.2753,170.8646,27.74,74,3,9.17,MH,1700699646
195,kabo,7.6994,18.629,25.17,63,100,1.43,CF,1700699646
196,broome,42.2506,-75.833,8.21,96,100,4.12,US,1700699646
197,bismarck,46.8083,-100.7837,-0.52,62,100,5.14,US,1700699466
198,kortessem,50.8579,5.3864,7.44,86,100,4.96,BE,1700699646
199,atafu village,-8.5421,-172.5159,29.09,73,21,4.01,TK,1700699646
200,turgen,43.4006,77.5933,6.07,94,100,4.66,KZ,1700699646
201,kailua-kona,19.6406,-155.9956,29.01,78,20,5.14,US,1700699647
202,moyynkum,44.2914,72.9469,8.38,75,100,3.63,KZ,1700699647
203,la cruz,23.9167,-106.9,21.94,64,0,1.55,MX,1700699647
204,bangassou,4.7413,22.8184,21.71,96,100,0.61,CF,1700699647
205,julio de castilhos,-29.2269,-53.6817,18.22,96,100,3.51,BR,1700699647
206,dungarpur,23.8333,73.7167,17.65,53,0,1.99,IN,1700699647
207,mahibadhoo,3.7833,72.9667,27.48,80,99,4.9,MV,1700699647
208,kirakira,-10.4544,161.9205,29.68,69,100,4.84,SB,1700699647
209,abbeville,50.1,1.8333,11.98,89,100,3.87,FR,1700699647
210,oum hadjer,13.2954,19.6966,24.88,24,65,3.5,TD,1700699648
211,albany,42.6001,-73.9662,5.96,95,100,1.15,US,1700699648
212,corner brook,48.9667,-57.9484,-4.91,67,100,1.42,CA,1700699648
213,uyuni,-20.4597,-66.825,13.49,20,100,3.33,BO,1700699648
214,guerrero negro,27.9769,-114.0611,21.87,48,1,2.44,MX,1700699648
215,east london,-33.0153,27.9116,20.83,89,0,1.63,ZA,1700699383
216,wynyard,-41.0,145.7167,17.68,70,21,3.56,AU,1700699649
217,arroyito,-31.4202,-63.05,22.28,74,3,2.46,AR,1700699649
218,marsh harbour,26.5412,-77.0636,25.19,74,18,4.87,BS,1700699649
219,shimoda,34.6667,138.95,19.2,72,81,6.17,JP,1700699649
220,greymouth,-42.4667,171.2,15.59,86,99,4.13,NZ,1700699649
221,merritt island,28.5392,-80.672,23.05,91,100,4.12,US,1700699649
222,port macquarie,-31.4333,152.9167,22.72,73,100,4.63,AU,1700699649
223,amga,60.8953,131.9608,-25.94,94,100,2.42,RU,1700699649
224,el obeid,13.1842,30.2167,22.63,23,31,4.08,SD,1700699650
225,tolanaro,-25.0319,46.9987,24.04,88,20,8.23,MG,1700699650
226,argo,37.6333,22.7333,16.55,84,100,0.89,GR,1700699650
227,hawaiian paradise park,19.5933,-154.9731,27.73,81,40,5.14,US,1700699650
228,colonia,50.9333,6.95,8.27,76,75,2.57,DE,1700699650
229,chubek,37.6137,69.7061,11.04,69,100,2.76,TJ,1700699650
230,mili,6.0815,171.735,27.79,80,5,6.13,MH,1700699650
231,new norfolk,-42.7826,147.0587,20.4,27,6,1.47,AU,1700699651
232,narvik,68.4384,17.4272,-0.33,84,89,3.44,NO,1700699651
233,igarka,67.4667,86.5833,-31.21,99,44,2.74,RU,1700699651
234,lagos,6.5833,3.75,24.65,93,100,1.8,NG,1700699191
235,tibanbang,6.6315,126.1055,27.96,76,87,1.98,PH,1700699651
236,cangucu,-31.395,-52.6756,16.56,98,100,3.54,BR,1700699651
237,rongelap,11.1635,166.8941,27.74,72,20,7.93,MH,1700699651
238,ordubad,38.9059,46.0234,7.54,41,7,2.55,AZ,1700699651
239,coruripe,-10.1256,-36.1756,25.76,72,0,6.16,BR,1700699651
240,eydhafushi,5.1033,73.0708,28.12,76,100,5.21,MV,1700699652
241,carutapera,-1.195,-46.02,25.87,83,29,3.12,BR,1700699652
242,constantia,44.1833,28.65,4.38,75,98,9.24,RO,1700699652
243,aykhal,66.0,111.5,-21.97,99,100,2.02,RU,1700699604
244,sovetskaya gavan',48.9723,140.2878,-1.05,92,100,8.58,RU,1700699652
245,as sulayyil,20.4607,45.5779,22.14,68,49,5.64,SA,1700699652
246,richards bay,-28.783,32.0377,23.03,94,9,2.74,ZA,1700699652
247,sherbakul',54.6316,72.3963,-0.8,90,100,4.79,RU,1700699652
248,tual,-5.6667,132.75,28.1,82,89,4.86,ID,1700699652
249,urmary,55.6789,47.944,-11.25,88,100,7.08,RU,1700699653
250,vadso,70.0744,29.7487,-6.91,73,100,9.26,NO,1700699653
251,luwuk,-0.9516,122.7875,30.77,67,18,1.4,ID,1700699653
252,ellsworth,44.5434,-68.4195,8.11,97,100,7.2,US,1700699653
253,puerto ayora,-0.7393,-90.3518,23.64,94,13,1.34,EC,1700699653
254,homer,59.6425,-151.5483,5.94,70,100,2.57,US,1700699653
255,thinadhoo,0.5333,72.9333,27.23,80,97,3.72,MV,1700699653
256,uliastay,47.7417,96.8444,-18.68,64,15,2.62,MN,1700699653
257,san andres,12.5847,-81.7006,29.01,79,20,4.63,CO,1700699654
258,severo-yeniseyskiy,60.3725,93.0408,-27.19,100,65,1.25,RU,1700699654
259,yreka,41.7354,-122.6345,9.16,57,100,1.54,US,1700699654
260,dampit,-8.2116,112.7493,27.7,63,100,3.01,ID,1700699654
261,kokopo,-4.352,152.2633,29.63,67,100,3.12,PG,1700699523
262,tabou,4.423,-7.3528,25.79,87,29,2.59,CI,1700699654
263,alofi,-19.0595,-169.9187,27.94,61,75,6.17,NU,1700699654
264,syktyvkar,61.6764,50.8099,-10.05,85,100,4.02,RU,1700699321
265,opuwo,-18.0607,13.84,25.86,34,87,1.03,NA,1700699655
266,fairfield,41.2668,-73.3162,8.17,84,100,3.09,US,1700699654
267,moree,-29.4667,149.85,26.67,53,100,6.27,AU,1700699655
268,luderitz,-26.6481,15.1594,17.8,62,3,5.23,NA,1700699655
269,tazovsky,67.4667,78.7,-22.21,100,100,5.75,RU,1700699541
270,port lincoln,-34.7333,135.8667,18.08,65,6,8.37,AU,1700699655
271,tocopilla,-22.092,-70.1979,18.71,73,18,2.49,CL,1700699510
272,sanga-sanga,5.0725,119.7853,28.48,76,48,5.13,PH,1700699655
273,pacific grove,36.6177,-121.9166,18.64,62,0,2.24,US,1700699655
274,karema,-6.8205,30.4389,21.73,83,100,1.36,TZ,1700699656
275,san ignacio de velasco,-16.3667,-60.95,25.65,61,25,1.54,BO,1700699656
276,cole harbour,44.6724,-63.4751,4.84,94,100,12.35,CA,1700699656
277,namsos,64.4662,11.4957,4.03,81,75,3.09,NO,1700699386
278,iaciara,-14.0958,-46.6317,21.45,94,37,1.53,BR,1700699656
279,badger,64.8,-147.5333,-11.47,84,40,0.0,US,1700699656
280,taro,-8.3862,115.28,23.0,68,100,1.6,ID,1700699656
281,zaragoza,41.6561,-0.8773,9.45,59,0,10.8,ES,1700699381
282,jalasjarvi,62.5,22.75,0.61,95,100,3.42,FI,1700699656
283,the dalles,45.5946,-121.1787,11.68,82,100,2.68,US,1700699657
284,ponta delgada,37.7333,-25.6667,17.33,88,40,3.6,PT,1700699376
285,okha,53.5739,142.9478,-9.75,81,100,6.47,RU,1700699657
286,ixtapa,20.7,-105.2,26.57,65,75,3.09,MX,1700699657
287,santa elena de uairen,4.6167,-61.1333,21.25,80,58,1.16,VE,1700699657
288,olaine,56.7853,23.9381,-1.15,100,100,8.23,LV,1700699501
289,hermanus,-34.4187,19.2345,17.72,82,42,3.0,ZA,1700699657
290,yarmouth,41.7057,-70.2286,10.06,93,100,8.05,US,1700699657
291,udachny,66.4167,112.4,-24.2,83,98,2.31,RU,1700699658
292,santa rosalia,27.3167,-112.2833,18.7,35,3,3.3,MX,1700699658
293,dakhla,23.6848,-15.958,19.78,84,19,6.29,EH,1700699658
294,tralee,52.2704,-9.7026,11.04,84,100,4.46,IE,1700699658
295,goz beida,13.95,20.55,24.01,27,11,3.4,TD,1700699658
296,tongouson,5.0214,120.1328,29.08,74,100,5.64,PH,1700699658
297,al mindak,20.1588,41.2834,15.78,57,97,1.39,SA,1700699658
298,hilo,19.7297,-155.09,28.49,83,40,5.14,US,1700699659
299,martuk,50.7475,56.5056,-5.8,93,100,10.85,KZ,1700699659
300,hedensted,55.7704,9.7011,11.02,94,100,9.68,DK,1700699659
301,box elder,41.5005,-112.8764,3.97,61,18,1.06,US,1700699659
302,hithadhoo,-0.6,73.0833,27.66,78,38,3.97,MV,1700699659
303,revda,56.801,59.9303,-4.08,97,100,1.71,RU,1700699659
304,bratsk,56.1325,101.6142,-24.73,97,51,1.36,RU,1700699659
305,ad dindar,13.2,34.1667,28.39,36,7,3.45,SD,1700699659
306,ascension,30.2169,-90.9001,13.0,77,0,0.0,US,1700699660
307,sidi okba,34.7451,5.8983,14.16,51,40,5.14,DZ,1700699660
308,popilnia,49.9665,29.4435,-9.39,91,71,2.85,UA,1700699660
309,bubaque,11.2833,-15.8333,28.56,66,59,3.5,GW,1700699660
310,wakkanai,45.4094,141.6739,12.83,86,75,7.15,JP,1700699660
311,peterhead,57.5058,-1.7981,14.22,74,87,12.12,GB,1700699652
312,barika,35.389,5.3658,10.55,70,100,5.68,DZ,1700699660
313,murghob,38.1702,73.9667,-8.36,39,1,2.14,TJ,1700699661
314,sadovoye,47.7764,44.5089,-2.5,61,100,3.23,RU,1700699661
315,buala,-8.145,159.5921,29.9,65,99,3.2,SB,1700699661
316,belmonte,-15.8631,-38.8828,25.34,83,2,5.04,BR,1700699661
317,san pedro,14.35,121.0167,29.62,73,20,2.68,PH,1700699661
318,warrnambool,-38.3833,142.4833,17.99,68,94,6.81,AU,1700699661
319,yangju,37.8331,127.0617,13.1,71,44,2.46,KR,1700699661
320,longgang,37.6508,120.3286,7.72,69,54,9.24,CN,1700699661
321,simanggang,1.2472,111.4528,25.99,94,40,1.54,MY,1700699661
322,sestri levante,44.2732,9.3968,13.95,42,10,4.85,IT,1700699662
323,vila franca do campo,37.7167,-25.4333,17.16,99,100,4.41,PT,1700699662
324,igrim,63.1906,64.4162,-9.87,92,100,4.26,RU,1700699662
325,pujehun,7.3581,-11.7208,25.23,94,7,0.25,SL,1700699662
326,mandalgovi,45.7625,106.2708,-18.6,83,5,2.57,MN,1700699662
327,zholymbet,51.7433,71.7122,2.89,92,100,6.63,KZ,1700699662
328,komsomol'skiy,43.9783,46.6985,4.71,77,94,4.89,RU,1700699662
329,crane,31.3974,-102.3501,12.3,29,0,1.99,US,1700699663
330,olinda,-8.0089,-34.8553,26.85,74,40,4.63,BR,1700699365
331,pocone,-16.2567,-56.6228,27.48,54,16,1.64,BR,1700699663
332,velikiy ustyug,60.7644,46.3106,-13.11,86,100,3.58,RU,1700699663
333,lata,40.1629,-8.3327,12.82,77,76,2.48,PT,1700699663
334,poronaysk,49.2167,143.1167,-2.1,95,100,8.08,RU,1700699663
335,ola,59.5833,151.2833,-16.63,69,100,5.7,RU,1700699664
336,geraldton,-28.7667,114.6,24.23,73,9,3.6,AU,1700699664
337,kaa-khem,51.6833,94.7333,-23.63,91,16,1.31,RU,1700699664
338,pasuquin,18.3328,120.6177,24.97,83,75,2.06,PH,1700699664
339,grand falls-windsor,48.9332,-55.6649,-3.72,77,61,0.53,CA,1700699664
340,banamba,13.55,-7.45,21.94,17,0,4.09,ML,1700699664
341,ujae,8.9322,165.7642,27.95,76,75,8.72,MH,1700699665
342,sawakin,19.1059,37.3321,26.84,82,47,0.95,SD,1700699665
343,chui,-33.6971,-53.4616,12.87,78,1,2.32,UY,1700699665
344,haiku-pauwela,20.9219,-156.3051,28.01,65,40,7.2,US,1700699665
345,tobelo,1.7284,128.0095,29.13,72,17,2.36,ID,1700699665
346,utrik,11.2278,169.8474,27.78,75,4,9.17,MH,1700699665
347,saltillo,25.4167,-101.0,9.32,79,100,2.57,MX,1700699665
348,yangiobod,41.1192,70.0941,2.09,87,100,1.29,UZ,1700699665
349,polyarnyy,69.1989,33.4478,-9.82,85,100,8.83,RU,1700699666
350,hami,42.8,93.45,-1.47,26,7,0.87,CN,1700699666
351,flying fish cove,-10.4217,105.6791,26.63,80,100,6.84,CX,1700699666
352,holualoa,19.6228,-155.9522,26.94,78,20,5.14,US,1700699666
353,kargil,34.5667,76.1,-4.06,37,2,0.86,IN,1700699666
354,xianju,28.85,120.7333,14.71,60,0,1.06,CN,1700699666
355,katagum,12.2867,10.3527,22.04,20,6,2.23,NG,1700699666
356,castillos,-34.1667,-53.8333,12.05,73,0,2.11,UY,1700699666
357,essaouira,31.5125,-9.77,14.72,72,7,2.06,MA,1700699667
358,mongo,12.1844,18.693,25.18,28,26,2.61,TD,1700699667
359,wuhai,39.6647,106.8122,-9.97,37,7,0.94,CN,1700699667
360,puerto san jose,13.9256,-90.8244,25.85,81,3,0.86,GT,1700699667
361,ciudad lazaro cardenas,17.9583,-102.2,25.79,80,100,0.83,MX,1700699667
362,gadzhiyevo,69.2551,33.3362,-10.43,86,100,8.74,RU,1700699668
363,shenjiamen,29.9576,122.298,17.78,69,5,3.9,CN,1700699668
364,vanimo,-2.6741,141.3028,28.71,78,58,3.09,PG,1700699668
365,sundsvall,62.3913,17.3063,-4.02,93,46,0.51,SE,1700699362
366,stephenville,32.2207,-98.2023,11.07,49,0,0.0,US,1700699668
367,bikenibeu village,1.3673,173.1241,31.98,70,20,3.09,KI,1700699668
368,tindouf,27.6711,-8.1474,16.25,48,16,8.23,DZ,1700699668
369,big spring,32.2504,-101.4787,12.91,35,0,3.09,US,1700699452
370,nuuk,64.1835,-51.7216,-0.66,64,40,8.23,GL,1700699647
371,vielha,42.6846,0.7726,-3.3,88,44,2.07,ES,1700699669
372,laojunmiao,39.8333,97.7333,-0.98,28,23,3.24,CN,1700699669
373,xinyuan,37.3,99.0,-7.9,38,0,2.43,CN,1700699669
374,kurchatov,51.6601,35.6521,-6.77,74,4,3.34,RU,1700699669
375,rundu,-17.9333,19.7667,23.5,56,97,1.96,NA,1700699669
376,kuraymah,18.55,31.85,22.61,26,9,3.17,SD,1700699670
377,verkhniye sergi,56.6469,59.5556,-3.99,97,100,1.5,RU,1700699670
378,chonchi,-42.6128,-73.8092,11.56,93,52,1.29,CL,1700699670
379,bireun,5.203,96.7009,26.19,83,93,1.52,ID,1700699670
380,galliano,29.4422,-90.2992,15.0,62,0,2.06,US,1700699670
381,quemado de guines,22.7853,-80.2536,23.12,88,30,3.21,CU,1700699670
382,ploneour-lanvern,47.9,-4.2833,11.18,87,100,3.6,FR,1700699670
383,marion,39.7684,-86.1555,7.21,75,100,3.6,US,1700699417
384,bharuch,21.7,72.9667,19.52,55,0,3.11,IN,1700699670
385,singaraja,-8.112,115.0882,29.67,70,100,0.92,ID,1700699671
386,swift current,50.2834,-107.8014,-4.55,80,100,4.12,CA,1700699671
387,souillac,-20.5167,57.5167,25.21,78,40,4.12,MU,1700699671
388,bam,29.106,58.357,11.55,30,0,2.86,IR,1700699671
389,debre werk',10.6667,38.1667,11.57,73,36,0.66,ET,1700699671
390,castelo do piaui,-5.3222,-41.5525,26.59,51,27,0.73,BR,1700699436
391,la libertad,-2.2333,-80.9,24.81,83,40,5.14,EC,1700699671
392,caconda,-13.7333,15.0667,18.55,71,72,1.36,AO,1700699671
393,shakiso,5.75,38.9167,13.79,96,34,1.02,ET,1700699671
394,shilka,51.85,116.0333,-17.79,82,67,1.43,RU,1700699672
395,dunedin,-45.8742,170.5036,12.11,93,100,2.68,NZ,1700699672
396,rustaq,23.3908,57.4244,22.03,71,18,1.01,OM,1700699672
397,khandyga,62.6667,135.6,-29.35,98,100,1.03,RU,1700699672
398,coquimbo,-29.9533,-71.3436,14.85,88,0,3.6,CL,1700699672
399,berezovyy,51.6667,135.7,-10.75,52,100,3.0,RU,1700699672
400,posto fiscal rolim de moura,-13.0833,-62.2667,26.53,63,1,1.38,BR,1700699672
401,koysinceq,36.0821,44.6278,8.88,52,100,1.25,IQ,1700699673
402,tarauaca,-8.1614,-70.7656,24.43,87,48,1.16,BR,1700699673
403,watsa,3.0372,29.5355,18.07,98,100,0.82,CD,1700699673
404,sisimiut,66.9395,-53.6735,-6.1,70,100,7.7,GL,1700699673
405,lafia,8.4833,8.5167,24.64,82,11,1.59,NG,1700699673
406,pangody,65.85,74.4859,-13.24,82,100,9.23,RU,1700699673
407,canton,23.1167,113.25,22.71,60,12,1.08,CN,1700699673
408,kavieng,-2.5744,150.7967,28.76,72,100,1.7,PG,1700699673
409,masterton,-40.9597,175.6575,16.05,39,90,3.65,NZ,1700699674
410,madzhalis,42.1217,47.8333,7.21,52,9,2.53,RU,1700699674
411,pocito,-31.6833,-68.5833,24.46,19,0,4.86,AR,1700699674
412,quchan,37.106,58.5095,2.54,68,8,1.76,IR,1700699572
413,bonthe,7.5264,-12.505,26.62,86,38,2.03,SL,1700699674
414,nizhnyaya tavda,57.6731,66.1725,0.82,97,100,4.61,RU,1700699674
415,xuddur,4.1213,43.8894,23.23,66,74,4.02,SO,1700699674
416,oranjemund,-28.55,16.4333,15.98,87,0,2.86,NA,1700699674
417,prince rupert,54.3161,-130.3201,7.83,77,100,8.23,CA,1700699675
418,roccella ionica,38.322,16.4009,17.74,79,71,4.4,IT,1700699675
419,baiti,13.745,-14.7482,26.51,14,99,3.55,SN,1700699675
420,bonga,7.2833,36.2333,14.55,98,21,0.83,ET,1700699675
421,progreso,21.2833,-89.6667,25.06,83,98,7.04,MX,1700699675
422,teofilo otoni,-17.8575,-41.5053,22.1,77,5,2.86,BR,1700699569
423,kamaishi,39.2667,141.8833,16.05,56,100,3.42,JP,1700699676
424,bandarbeyla,9.4942,50.8122,26.75,76,94,8.49,SO,1700699676
425,da nang,16.0678,108.2208,22.99,100,75,0.0,VN,1700699676
426,tibati,6.4667,12.6333,19.99,84,100,0.85,CM,1700699676
427,pagar alam,-4.0167,103.2667,23.3,88,100,0.32,ID,1700699676
428,tshikapa,-6.4167,20.8,21.74,99,100,1.37,CD,1700699676
429,itoman,26.1247,127.6694,24.01,69,20,4.63,JP,1700699677
430,terbanggi besar,-4.8667,105.2333,27.85,73,100,3.28,ID,1700699677
431,changji,44.0167,87.3167,-2.56,93,0,0.0,CN,1700699677
432,kargopol',61.5071,38.9456,-14.55,100,99,1.52,RU,1700699677
433,ulanhot,46.0833,122.0833,-11.13,71,100,6.43,CN,1700699677
434,manta,-0.95,-80.7333,25.88,73,75,5.66,EC,1700699677
435,chaiya,9.3862,99.1986,26.1,81,47,2.31,TH,1700699677
436,fisterra,42.9049,-9.2629,12.79,69,71,8.42,ES,1700699678
437,murmashi,68.8154,32.8115,-13.77,84,0,4.02,RU,1700699678
438,pudasjarvi,65.3833,26.9167,-2.73,94,100,7.28,FI,1700699678
439,prince albert,53.2001,-105.7677,-12.03,61,75,1.54,CA,1700699678
440,sanchi,23.4833,77.7333,17.62,52,0,1.58,IN,1700699678
441,toamasina,-18.1667,49.3833,25.0,88,75,3.09,MG,1700699678
442,at taj,24.2049,23.2857,15.51,35,11,2.29,LY,1700699678
443,tamazula de gordiano,19.6333,-103.25,18.58,96,100,1.06,MX,1700699679
444,pisco,-13.7,-76.2167,21.03,78,0,7.2,PE,1700699679
445,ust-tsilma,65.441,52.1498,-13.55,96,100,1.34,RU,1700699679
446,weno,7.4515,151.8468,30.97,74,40,3.6,FM,1700699679
447,tabuk,17.4189,121.4443,25.87,76,90,1.18,PH,1700699679
448,bani walid,31.7566,13.9942,11.18,64,0,4.13,LY,1700699679
449,urangan,-25.3,152.9,25.67,73,72,2.68,AU,1700699679
450,llorente,11.4119,125.5458,28.65,76,15,0.46,PH,1700699679
451,lorengau,-2.0226,147.2712,29.67,68,99,2.33,PG,1700699680
452,papao,-17.75,-149.55,28.82,88,38,9.99,PF,1700699680
453,al abyar,32.19,20.5965,14.43,50,7,7.85,LY,1700699680
454,horta,38.5333,-28.6333,17.98,87,27,3.95,PT,1700699680
455,acu,-5.5767,-36.9086,26.59,65,0,6.87,BR,1700699680
456,kayes,14.0,-11.0,25.04,13,95,2.68,ML,1700699509
457,tazacorte,28.629,-17.9293,22.86,44,0,3.58,ES,1700699680
458,pontes e lacerda,-15.2261,-59.3353,23.83,79,81,1.6,BR,1700699680
459,sirte,31.2089,16.5887,19.83,68,5,7.01,LY,1700699681
460,avanigadda,16.0215,80.9181,24.41,93,100,2.04,IN,1700699681
461,macheng,31.1783,115.0319,15.65,40,0,7.3,CN,1700699681
462,candido de abreu,-24.5669,-51.3333,21.44,99,100,1.09,BR,1700699681
463,ocean city,39.2776,-74.5746,12.01,81,100,1.34,US,1700699681
464,quibala,-10.7337,14.98,16.79,97,100,0.56,AO,1700699681
465,baiyin,36.5583,104.2081,-3.33,41,0,0.46,CN,1700699682
466,bontang,0.1333,117.5,28.36,77,97,2.35,ID,1700699682
467,nouadhibou,20.931,-17.0347,23.99,41,100,6.69,MR,1700699682
468,santa maria da vitoria,-13.3947,-44.1886,25.6,42,2,0.86,BR,1700699682
469,meadow lake,34.8014,-106.5436,10.93,43,5,0.79,US,1700699682
470,nar'yan-mar,67.6713,53.087,-10.5,95,100,4.92,RU,1700699463
471,kerikeri,-35.2268,173.9474,18.66,93,65,1.33,NZ,1700699682
472,kingston,17.997,-76.7936,27.53,86,20,2.57,JM,1700699682
473,glace bay,46.1969,-59.957,2.77,81,100,3.58,CA,1700699683
474,karbala,32.616,44.0249,14.27,38,100,3.34,IQ,1700699683
475,okhotsk,59.3833,143.3,-15.74,89,100,5.45,RU,1700699683
476,juneau,58.3019,-134.4197,4.0,97,100,5.14,US,1700699555
477,palora,-1.7,-77.9333,19.39,97,95,1.46,EC,1700699683
478,ta`u,-14.2336,-169.5144,26.98,79,100,5.7,AS,1700699683
479,fiambala,-27.6871,-67.6149,19.27,76,21,2.68,AR,1700699684
480,maryborough,-25.5333,152.7,25.62,53,100,4.36,AU,1700699684
481,summerside,46.3959,-63.7876,3.19,75,100,5.14,CA,1700699684
482,akrehamn,59.2667,5.1833,9.67,87,100,9.26,NO,1700699684
483,caluula,11.9661,50.7569,27.03,74,27,5.98,SO,1700699685
484,kidal,18.4411,1.4078,21.66,15,88,3.91,ML,1700699685
485,katabu,-4.9333,122.5167,31.75,60,27,1.6,ID,1700699685
486,rio grande,-32.035,-52.0986,19.06,80,100,5.77,BR,1700699570
487,pingliang,35.5392,106.6861,-1.01,41,0,2.33,CN,1700699685
488,port hedland,-20.3167,118.5667,37.03,9,0,8.75,AU,1700699685
489,atar,20.5169,-13.0499,24.0,13,100,3.26,MR,1700699685
490,touros,-5.1989,-35.4608,27.04,69,25,6.43,BR,1700699389
491,mugia,43.1041,-9.2179,12.87,72,44,9.43,ES,1700699685
492,taulaga,-11.0553,-171.0883,28.18,68,100,3.47,AS,1700699686
493,toliara,-23.35,43.6667,25.06,64,0,1.78,MG,1700699686
494,la ronge,55.1001,-105.2842,-13.86,56,20,4.12,CA,1700699686
495,lompoc,34.6391,-120.4579,20.4,53,0,7.6,US,1700699686
496,acapulco de juarez,16.8634,-99.8901,28.9,74,100,3.6,MX,1700699687
497,alice springs,-23.7,133.8833,25.75,27,64,3.6,AU,1700699687
498,skelleftea,64.7507,20.9528,-6.8,100,100,1.03,SE,1700699687
499,morondava,-20.2833,44.2833,26.14,87,1,1.94,MG,1700699687
500,taoudenni,22.6783,-3.9836,22.2,17,100,2.26,ML,1700699687
501,yardimli,38.9206,48.2372,5.92,35,9,3.17,AZ,1700699687
502,woolgoolga,-30.1106,153.2007,23.91,79,100,3.36,AU,1700699688
503,burang,30.25,81.1667,-3.7,31,0,0.91,CN,1700699688
504,acajutla,13.5928,-89.8275,26.38,80,51,1.11,SV,1700699688
505,cabedelo,-6.9811,-34.8339,27.37,71,5,5.55,BR,1700699688
506,barra de santo antonio,-9.4047,-35.5072,24.6,76,0,4.98,BR,1700699688
507,copiapo,-27.3667,-70.3333,13.83,55,4,1.62,CL,1700699688
508,minas de marcona,-15.2119,-75.1103,15.4,80,11,4.71,PE,1700699689
509,callao,-12.0667,-77.15,23.73,78,20,4.63,PE,1700699689
510,umba,66.6871,34.3429,-4.47,74,100,10.11,RU,1700699689
511,hadibu,12.65,54.0333,25.9,80,16,4.8,YE,1700699524
512,kapuskasing,49.4169,-82.4331,-2.95,68,100,1.54,CA,1700699689
513,luba,3.4568,8.5547,25.01,87,100,1.3,GQ,1700699689
514,muskegon,43.3,-86.1334,7.16,76,75,4.12,US,1700699690
515,leua,48.2156,18.6071,0.83,83,100,1.55,SK,1700699690
516,st. john's,47.5649,-52.7093,-0.02,90,100,5.36,CA,1700699690
517,mumford,5.2618,-0.759,26.89,83,85,5.2,GH,1700699690
518,mwinilunga,-11.7358,24.4293,15.83,94,100,1.18,ZM,1700699690
519,isangel,-19.55,169.2667,26.06,73,75,1.54,VU,1700699691
520,shetpe,44.1667,52.1167,4.61,84,99,1.25,KZ,1700699691
521,saint-joseph,-21.3667,55.6167,22.48,77,100,5.42,RE,1700699405
522,tarrafal,15.2833,-23.7667,27.44,78,100,4.87,CV,1700699691
523,boa vista,2.8197,-60.6733,27.99,69,20,2.06,BR,1700699691
524,malpica,43.3228,-8.8105,12.35,72,8,8.13,ES,1700699691
525,rumphi,-11.0186,33.8575,20.56,69,13,2.72,MW,1700699692
526,kasamwa,-2.85,32.4333,17.8,96,100,1.16,TZ,1700699692
527,mitsamiouli,-11.3847,43.2844,27.43,76,54,5.35,KM,1700699692
528,prado,-17.3411,-39.2208,24.64,86,16,6.13,BR,1700699692
529,takoradi,4.8845,-1.7554,26.45,85,100,4.31,GH,1700699692
530,kudymkar,59.0173,54.656,-7.48,95,100,2.56,RU,1700699692
531,zheleznodorozhnyy,55.7503,38.0042,-7.71,70,77,4.47,RU,1700699692
532,mahina,-17.5065,-149.489,28.87,74,75,3.6,PF,1700699693
533,mo i rana,66.3128,14.1428,0.74,93,100,0.0,NO,1700699653
534,tamanrasset,22.785,5.5228,9.95,22,0,2.06,DZ,1700699693
535,rossosh',51.1209,38.5116,-12.75,94,6,3.03,RU,1700699693
536,saint-benoit,-21.038,55.7194,24.04,80,100,6.07,RE,1700699405
537,inhambane,-23.865,35.3833,24.19,89,0,3.03,MZ,1700699693
538,schwaz,47.3391,11.7336,-0.97,91,78,2.39,AT,1700699693
539,manggar,-2.8833,108.2667,28.6,73,100,5.27,ID,1700699694
540,suva,-18.1416,178.4415,29.71,66,40,4.12,FJ,1700699694
541,illizi,26.4833,8.4667,12.89,49,0,2.73,DZ,1700699694
542,rawlins,41.7911,-107.2387,6.94,36,0,5.14,US,1700699694
543,licheng,23.2955,113.8284,21.87,61,52,1.27,CN,1700699694
544,qa'en,33.7265,59.1844,2.19,44,0,0.51,IR,1700699695
545,port douglas,-16.4833,145.4667,27.66,69,96,3.93,AU,1700699695
546,cockburn town,21.4612,-71.1419,27.12,62,9,6.56,TC,1700699695
547,plaza huincul,-38.926,-69.2086,15.08,10,0,8.05,AR,1700699439
548,mount pearl,47.5166,-52.7813,-0.48,90,100,5.14,CA,1700699695
549,lethem,3.3803,-59.7968,27.86,66,100,3.33,GY,1700699695
550,ji'an,27.1172,114.9793,19.28,63,0,1.84,CN,1700699696
551,jinchang,38.4953,102.1739,-4.42,43,0,3.74,CN,1700699696
552,letlhakane,-21.4167,25.5833,26.67,38,11,5.05,BW,1700699696
553,hanceville,34.0607,-86.7675,8.42,75,0,1.62,US,1700699696
554,hoshangabad,22.75,77.7167,16.62,58,0,2.08,IN,1700699696
555,urucurituba,-2.6833,-57.6667,23.64,94,100,0.27,BR,1700699696
556,muisne,0.6,-80.0333,25.48,85,100,2.23,EC,1700699697
557,tejen,37.3834,60.5054,10.12,40,1,5.02,TM,1700699697
558,mermoz boabab,14.7065,-17.4758,26.88,69,0,3.09,SN,1700699697
559,edgewater,28.9889,-80.9023,22.08,91,100,3.09,US,1700699697
560,mar del plata,-38.0023,-57.5575,17.27,76,0,5.81,AR,1700699393
561,yamada,39.4667,141.95,15.71,53,100,2.52,JP,1700699697
562,mirai,-21.1953,-42.6142,26.59,60,100,1.96,BR,1700699698
563,longavi,-35.9667,-71.6833,12.17,64,2,3.18,CL,1700699698
564,berdigestyakh,62.0989,126.6992,-25.48,94,100,3.8,RU,1700699698
565,port saint john's,-31.6229,29.5448,20.94,94,9,1.52,ZA,1700699698
566,yinchuan,38.4681,106.2731,-6.78,33,0,2.97,CN,1700699693
567,pangai,-19.8,-174.35,29.06,65,40,5.66,TO,1700699698
568,suntar,62.1444,117.6319,-24.36,94,100,2.98,RU,1700699699
569,axim,4.8699,-2.2405,26.4,84,100,3.85,GH,1700699699
570,acarau,-2.8856,-40.12,26.64,78,0,7.07,BR,1700699699
571,realeza,-25.7689,-53.5325,21.49,99,100,2.6,BR,1700699699
572,harper,4.375,-7.7169,25.84,87,38,2.5,LR,1700699699
573,al kharijah,25.4514,30.5464,17.69,44,0,2.25,EG,1700699699
574,augusta,48.3667,10.8833,1.85,86,75,1.54,DE,1700699401
575,coahuayana de hidalgo,18.7,-103.6583,24.07,88,100,0.83,MX,1700699700
576,harstad,68.799,16.5293,1.2,95,100,3.13,NO,1700699700
577,vologda,59.2187,39.8886,-8.58,88,80,1.79,RU,1700699481
578,kingscliff,-28.2667,153.5667,26.08,69,76,3.09,AU,1700699700
579,sao paulo de olivenca,-3.3783,-68.8725,25.63,80,99,0.58,BR,1700699700
580,rikaze,29.25,88.8833,-5.78,19,0,1.37,CN,1700699701
581,mokhsogollokh,61.4681,128.9203,-24.56,92,100,3.75,RU,1700699701
582,saint-francois,46.4154,3.9054,-0.31,93,0,1.03,FR,1700699702
583,san clemente del tuyu,-36.3569,-56.7235,16.1,60,39,6.03,AR,1700699702
